,City,Latitude,Longitude,Max Temperature,Humidity,Cloudiness,Wind Speed,Country,Date
0,Albany,42.6001,-73.9662,71.55,95,100,4.68,US,2021-07-01 04:20:37
1,Castro,-24.7911,-50.0119,35.64,89,0,3.06,BR,2021-07-01 04:23:07
2,Busselton,-33.65,115.3333,59.04,65,32,7.38,AU,2021-07-01 04:23:07
3,Pierre,44.3683,-100.351,76.12,71,1,6.91,US,2021-07-01 04:23:07
4,Guilin,25.2819,110.2864,78.91,87,100,6.51,CN,2021-07-01 04:20:11
5,New Norfolk,-42.7826,147.0587,62.1,79,84,1.54,AU,2021-07-01 04:23:08
6,Port Hardy,50.6996,-127.4199,55.58,94,90,8.05,CA,2021-07-01 04:23:09
7,Iqaluit,63.7506,-68.5145,46.13,75,75,5.99,CA,2021-07-01 04:23:09
8,Antalaha,-14.9003,50.2788,70.66,77,100,7.05,MG,2021-07-01 04:23:09
9,Cidreira,-30.1811,-50.2056,52.47,85,97,5.53,BR,2021-07-01 04:23:10
10,Bilma,18.6853,12.9164,87.17,13,3,8.32,NE,2021-07-01 04:23:10
11,Kiama,-34.6833,150.8667,65.37,76,99,3.0,AU,2021-07-01 04:23:11
12,Atuona,-9.8,-139.0333,78.93,78,80,23.55,PF,2021-07-01 04:23:11
13,Mackay,-21.15,149.2,75.69,73,18,9.8,AU,2021-07-01 04:23:11
14,Grindavik,63.8424,-22.4338,51.75,100,90,13.8,IS,2021-07-01 04:23:12
15,Rikitea,-23.1203,-134.9692,74.89,75,35,19.6,PF,2021-07-01 04:23:12
16,San Patricio,28.017,-97.5169,84.06,81,94,6.46,US,2021-07-01 04:23:13
17,Ruska Poliana,49.417,31.9201,69.35,82,40,4.36,UA,2021-07-01 04:23:13
18,Zavitinsk,50.1167,129.45,68.41,63,66,9.01,RU,2021-07-01 04:23:14
19,Mataura,-46.1927,168.8643,48.47,89,75,0.49,NZ,2021-07-01 04:23:14
20,Bambous Virieux,-20.3428,57.7575,74.21,68,40,13.8,MU,2021-07-01 04:23:14
21,Ishinomaki,38.4167,141.3,71.6,88,100,14.43,JP,2021-07-01 04:23:15
22,Yunhe,34.0833,119.7167,91.08,41,28,9.73,CN,2021-07-01 04:23:15
23,Bredasdorp,-34.5322,20.0403,56.52,72,26,16.11,ZA,2021-07-01 04:23:16
24,Arraial do Cabo,-22.9661,-42.0278,65.23,64,98,19.17,BR,2021-07-01 04:23:16
25,Srednekolymsk,67.45,153.6833,58.1,35,0,11.18,RU,2021-07-01 04:23:17
26,Lüderitz,-26.6481,15.1594,55.18,76,1,5.12,NA,2021-07-01 04:18:25
27,San Cristobal,7.7669,-72.225,62.69,98,86,4.18,VE,2021-07-01 04:21:13
28,Nyurba,63.2842,118.3319,82.98,53,96,4.32,RU,2021-07-01 04:23:17
29,Thompson,55.7435,-97.8558,71.76,49,75,2.3,CA,2021-07-01 04:23:18
30,Tobol,52.6844,62.5794,84.16,35,62,5.14,KZ,2021-07-01 04:23:18
31,Altay,47.8667,88.1167,75.92,44,9,5.41,CN,2021-07-01 04:23:19
32,Souillac,-20.5167,57.5167,74.35,68,40,13.8,MU,2021-07-01 04:23:19
33,Tambun,-6.2641,107.0712,90.03,70,20,9.22,ID,2021-07-01 04:23:20
34,Kapaa,22.0752,-159.319,84.18,77,40,3.0,US,2021-07-01 04:23:20
35,Cape Town,-33.9258,18.4232,56.1,87,40,12.66,ZA,2021-07-01 04:20:31
36,Cabo San Lucas,22.8909,-109.9124,80.62,75,24,5.99,MX,2021-07-01 04:20:41
37,Ushuaia,-54.8,-68.3,37.06,87,0,12.66,AR,2021-07-01 04:23:21
38,Fortuna,40.5982,-124.1573,63.43,70,90,3.0,US,2021-07-01 04:23:21
39,Ancud,-41.8697,-73.8203,46.22,91,45,12.8,CL,2021-07-01 04:23:22
40,Lagoa,39.05,-27.9833,67.42,76,100,24.96,PT,2021-07-01 04:23:22
41,Bethel,41.3712,-73.414,74.1,89,98,4.23,US,2021-07-01 04:23:23
42,Saint Paul Harbor,57.79,-152.4072,60.31,59,1,17.27,US,2021-07-01 04:23:23
43,Bairiki Village,1.3292,172.9752,86.0,74,40,9.22,KI,2021-07-01 04:23:23
44,Vaini,-21.2,-175.2,73.56,94,75,6.91,TO,2021-07-01 04:23:24
45,Bluff,-46.6,168.3333,48.79,73,92,5.35,NZ,2021-07-01 04:23:24
46,Nikolskoye,59.7035,30.7861,68.81,71,0,5.75,RU,2021-07-01 04:23:25
47,Adrar,20.5022,-10.0711,85.53,16,1,6.15,MR,2021-07-01 04:23:25
48,Lompoc,34.6391,-120.4579,67.57,80,90,5.75,US,2021-07-01 04:23:25
49,Sioux Lookout,50.1001,-91.917,66.58,52,1,4.61,CA,2021-07-01 04:23:26
50,Carnarvon,-24.8667,113.6333,68.07,43,0,13.8,AU,2021-07-01 04:23:26
51,Hobart,-42.8794,147.3294,62.46,67,40,6.91,AU,2021-07-01 04:23:27
52,Faanui,-16.4833,-151.75,80.01,79,88,26.28,PF,2021-07-01 04:23:27
53,Kendari,-3.945,122.4989,73.49,95,100,3.76,ID,2021-07-01 04:23:27
54,Discovery Bay,37.9085,-121.6002,72.25,60,1,28.77,US,2021-07-01 04:23:28
55,Shirokiy,49.758,129.523,68.5,68,45,9.4,RU,2021-07-01 04:23:28
56,Balikpapan,-1.2675,116.8289,81.59,78,20,4.61,ID,2021-07-01 04:23:28
57,Stolin,51.8912,26.846,64.62,92,74,5.91,BY,2021-07-01 04:23:29
58,Kavieng,-2.5744,150.7967,84.72,69,100,9.6,PG,2021-07-01 04:23:29
59,Puerto Ayora,-0.7393,-90.3518,73.54,85,29,5.99,EC,2021-07-01 04:23:30
60,Barentu,15.1139,37.5928,69.53,76,93,7.7,ER,2021-07-01 04:23:30
61,Lorengau,-2.0226,147.2712,83.77,69,74,4.14,PG,2021-07-01 04:23:30
62,Benin,9.5,2.25,72.37,96,100,3.62,BJ,2021-07-01 04:23:31
63,Oparino,59.8518,48.2783,69.53,71,93,3.91,RU,2021-07-01 04:23:31
64,Port Elizabeth,-33.918,25.5701,64.69,39,0,16.11,ZA,2021-07-01 04:23:32
65,Dongsheng,39.8161,109.9776,81.73,12,19,5.55,CN,2021-07-01 04:23:32
66,Yellowknife,62.456,-114.3525,75.72,69,75,4.0,CA,2021-07-01 04:23:32
67,Saint-Philippe,-21.3585,55.7679,70.48,85,50,14.56,RE,2021-07-01 04:23:33
68,Nipawin,53.3668,-104.0009,73.44,78,1,5.75,CA,2021-07-01 04:23:33
69,Constitución,-35.3333,-72.4167,49.68,75,64,3.67,CL,2021-07-01 04:23:34
70,Tasiilaq,65.6145,-37.6368,33.33,62,2,6.4,GL,2021-07-01 04:23:34
71,Bubaque,11.2833,-15.8333,79.84,84,83,11.36,GW,2021-07-01 04:23:34
72,Laas,46.6166,10.7002,56.28,89,100,5.44,IT,2021-07-01 04:23:35
73,Gallup,35.5281,-108.7426,67.84,53,90,10.36,US,2021-07-01 04:23:35
74,Bundaberg,-24.85,152.35,73.22,60,75,5.99,AU,2021-07-01 04:23:36
75,Upernavik,72.7868,-56.1549,36.19,99,100,10.85,GL,2021-07-01 04:23:36
76,Punta Arenas,-53.15,-70.9167,35.71,93,0,4.61,CL,2021-07-01 04:22:28
77,Soeng Sang,14.4264,102.4606,91.0,50,84,8.34,TH,2021-07-01 04:23:37
78,Barrow,71.2906,-156.7887,35.62,75,90,5.75,US,2021-07-01 04:23:37
79,Jamestown,42.097,-79.2353,71.19,92,90,5.01,US,2021-07-01 04:20:38
80,Antofagasta,-23.65,-70.4,56.48,81,25,3.76,CL,2021-07-01 04:23:38
81,Chapais,49.7834,-74.8492,56.98,80,52,5.41,CA,2021-07-01 04:23:38
82,Karlstad,59.3793,13.5036,55.96,71,20,12.66,SE,2021-07-01 04:23:38
83,Santa Maria,-29.6842,-53.8069,44.01,95,67,4.56,BR,2021-07-01 04:23:39
84,Abonnema,4.7084,6.7931,74.5,94,53,3.6,NG,2021-07-01 04:23:39
85,Broken Hill,-31.95,141.4333,63.25,46,0,5.64,AU,2021-07-01 04:22:26
86,Hamilton,39.1834,-84.5333,72.79,97,40,1.99,US,2021-07-01 04:23:40
87,Udarnyy,54.3409,42.8611,60.73,88,68,5.35,RU,2021-07-01 04:19:11
88,Shenzhen,22.5455,114.0683,91.35,99,83,14.23,CN,2021-07-01 04:18:44
89,Qaqortoq,60.7167,-46.0333,45.1,83,55,0.38,GL,2021-07-01 04:23:41
90,Kānt,27.8,79.8,103.78,26,69,11.25,IN,2021-07-01 04:23:41
91,Qaanaaq,77.484,-69.3632,34.43,95,100,14.23,GL,2021-07-01 04:23:41
92,Udachny,66.4167,112.4,62.11,63,100,6.53,RU,2021-07-01 04:23:42
93,Lesogorsk,56.0458,99.5136,70.07,58,77,6.26,RU,2021-07-01 04:23:42
94,Teguise,29.0605,-13.564,64.62,68,90,13.8,ES,2021-07-01 04:23:43
95,Saint-François,46.4154,3.9054,58.48,98,75,3.44,FR,2021-07-01 04:23:43
96,Mar del Plata,-38.0023,-57.5575,46.13,59,0,11.01,AR,2021-07-01 04:21:42
97,Cabra,37.4725,-4.4421,70.9,69,0,3.09,ES,2021-07-01 04:23:44
98,Najrān,17.4924,44.1277,79.45,18,2,2.48,SA,2021-07-01 04:23:44
99,Olinda,-8.0089,-34.8553,71.33,94,90,6.91,BR,2021-07-01 04:19:50
100,Abu Samrah,35.3029,37.1841,79.68,40,0,7.76,SY,2021-07-01 04:23:45
101,Kalachinsk,55.0529,74.5751,74.64,76,34,6.69,RU,2021-07-01 04:23:45
102,Biltine,14.5333,20.9167,80.33,53,90,9.13,TD,2021-07-01 04:23:45
103,North Bend,43.4065,-124.2243,64.24,87,90,6.91,US,2021-07-01 04:23:00
104,Hilo,19.7297,-155.09,76.73,83,20,9.22,US,2021-07-01 04:23:47
105,Tateyama,34.9833,139.8667,73.15,92,100,14.0,JP,2021-07-01 04:23:48
106,Leningradskiy,69.3833,178.4167,35.2,76,97,8.75,RU,2021-07-01 04:23:48
107,Taltal,-25.4,-70.4833,57.02,76,20,4.68,CL,2021-07-01 04:23:48
108,Yarmolyntsi,49.1924,26.8373,64.47,91,35,4.92,UA,2021-07-01 04:23:49
109,Riyadh,24.6877,46.7219,89.74,10,0,1.54,SA,2021-07-01 04:23:49
110,Ilulissat,69.2167,-51.1,41.02,75,90,10.36,GL,2021-07-01 04:23:50
111,Nanortalik,60.1432,-45.2371,41.04,88,95,8.03,GL,2021-07-01 04:23:50
112,Saskylakh,71.9167,114.0833,70.16,44,88,11.59,RU,2021-07-01 04:23:50
113,Talaya,61.3833,152.75,66.13,58,100,14.12,RU,2021-07-01 04:23:51
114,Katsuura,35.1333,140.3,73.44,95,100,14.23,JP,2021-07-01 04:23:51
115,Butaritari,3.0707,172.7902,82.27,74,34,12.8,KI,2021-07-01 04:23:52
116,Dhidhdhoo,6.8833,73.1,82.78,75,81,17.69,MV,2021-07-01 04:23:52
117,La Ronge,55.1001,-105.2842,82.65,44,20,4.61,CA,2021-07-01 04:23:52
118,Carutapera,-1.195,-46.02,74.46,92,25,4.68,BR,2021-07-01 04:23:53
119,Kahului,20.8947,-156.47,80.62,74,40,17.27,US,2021-07-01 04:23:53
120,Alice Springs,-23.7,133.8833,74.21,21,0,11.99,AU,2021-07-01 04:20:53
121,Sibu,2.3,111.8167,80.91,78,40,8.05,MY,2021-07-01 04:23:54
122,Chokurdakh,70.6333,147.9167,62.51,28,15,8.23,RU,2021-07-01 04:23:54
123,Lebu,-37.6167,-73.65,51.62,91,71,6.71,CL,2021-07-01 04:23:55
124,Dengzhou,37.8086,120.7508,78.53,67,79,5.7,CN,2021-07-01 04:23:55
125,Havelock,34.8791,-76.9013,81.01,87,30,5.01,US,2021-07-01 04:23:49
126,Avarua,-21.2078,-159.775,78.85,83,75,6.91,CK,2021-07-01 04:23:56
127,East London,-33.0153,27.9116,61.74,33,0,3.44,ZA,2021-07-01 04:23:56
128,Makkah al Mukarramah,21.4267,39.8261,84.42,45,72,4.45,SA,2021-07-01 04:23:39
129,Mustafakemalpaşa,40.0353,28.4117,77.11,54,0,3.44,TR,2021-07-01 04:23:57
130,Kavaratti,10.5669,72.642,82.94,75,98,18.43,IN,2021-07-01 04:23:57
131,Lata,40.1629,-8.3327,58.93,97,81,1.79,PT,2021-07-01 04:23:58
132,Bengkulu,-3.8004,102.2655,84.42,68,96,4.12,ID,2021-07-01 04:20:22
133,Kaitangata,-46.2817,169.8464,47.93,72,82,2.46,NZ,2021-07-01 04:23:58
134,Kupang,-10.1667,123.5833,88.38,45,40,20.71,ID,2021-07-01 04:23:59
135,Visby,57.6409,18.296,64.06,100,75,9.22,SE,2021-07-01 04:23:59
136,Menongue,-14.6585,17.691,44.31,41,29,2.24,AO,2021-07-01 04:24:00
137,Salto,-31.3833,-57.9667,44.87,91,100,15.01,UY,2021-07-01 04:21:44
138,Touros,-5.1989,-35.4608,74.3,95,100,7.38,BR,2021-07-01 04:23:01
139,Codrington,-38.2667,141.9667,59.32,64,51,10.89,AU,2021-07-01 04:24:00
140,Narsaq,60.9167,-46.05,44.82,76,44,2.19,GL,2021-07-01 04:24:01
141,Norrköping,58.5942,16.1826,58.19,88,75,12.66,SE,2021-07-01 04:24:01
142,Escanaba,45.7453,-87.0646,64.83,91,1,5.75,US,2021-07-01 04:24:02
143,Guerrero Negro,27.9769,-114.0611,67.42,83,1,14.14,MX,2021-07-01 04:24:02
144,Vila,42.0304,-8.1588,49.75,92,86,1.36,PT,2021-07-01 04:24:02
145,Mahébourg,-20.4081,57.7,74.25,68,40,13.8,MU,2021-07-01 04:24:03
146,Plouzané,48.3833,-4.6167,59.05,91,90,2.3,FR,2021-07-01 04:23:52
147,Port Alfred,-33.5906,26.891,62.92,48,50,32.91,ZA,2021-07-01 04:24:03
148,Vao,-22.6667,167.4833,68.27,68,33,25.28,NC,2021-07-01 04:24:04
149,Kumul,42.8,93.45,87.24,17,0,10.54,CN,2021-07-01 04:24:04
150,Wenatchee,47.4235,-120.3103,95.43,33,1,20.71,US,2021-07-01 04:23:34
151,Norman Wells,65.282,-126.8329,57.24,94,75,0.0,CA,2021-07-01 04:24:05
152,Koindu,8.4386,-10.3253,68.36,99,100,2.3,GN,2021-07-01 04:24:05
153,Ordu,40.9086,37.6845,63.1,82,0,2.13,TR,2021-07-01 04:24:06
154,Gaoua,10.2992,-3.2508,73.35,87,100,3.51,BF,2021-07-01 04:24:07
155,Ponta do Sol,32.6667,-17.1,68.72,78,5,1.52,PT,2021-07-01 04:24:07
156,Port Moresby,-9.4431,147.1797,87.22,62,40,28.77,PG,2021-07-01 04:24:07
157,São João da Barra,-21.6403,-41.0511,64.18,64,100,16.08,BR,2021-07-01 04:24:08
158,Katherine,-14.4667,132.2667,88.12,35,29,14.97,AU,2021-07-01 04:24:08
159,Troitskoye,52.9821,84.6757,61.2,94,100,1.9,RU,2021-07-01 04:24:08
160,Cherskiy,68.75,161.3,53.78,32,5,12.24,RU,2021-07-01 04:24:09
161,Salym,60.0625,71.4789,75.9,63,70,8.34,RU,2021-07-01 04:24:09
162,Los Llanos de Aridane,28.6585,-17.9182,65.95,95,75,12.66,ES,2021-07-01 04:24:10
163,Pokhara,28.2333,83.9833,72.79,91,100,0.89,NP,2021-07-01 04:24:10
164,Trelleborg,55.3751,13.1569,62.55,92,100,18.72,SE,2021-07-01 04:24:11
165,Padang,-0.9492,100.3543,86.05,62,99,2.89,ID,2021-07-01 04:23:37
166,Laguna,38.421,-121.4238,82.9,64,1,7.0,US,2021-07-01 04:24:11
167,St Austell,50.3383,-4.7658,58.68,100,75,6.91,GB,2021-07-01 04:24:12
168,Khatanga,71.9667,102.5,66.42,47,100,7.83,RU,2021-07-01 04:24:12
169,Maracaçumé,-2.0428,-45.9592,71.78,94,21,3.38,BR,2021-07-01 04:24:12
170,Hermanus,-34.4187,19.2345,56.8,77,26,20.65,ZA,2021-07-01 04:24:13
171,Agirish,61.9247,63.0231,82.96,50,14,9.69,RU,2021-07-01 04:24:13
172,Deneysville,-26.8908,28.0971,45.28,64,0,6.69,ZA,2021-07-01 04:24:14
173,Longyearbyen,78.2186,15.6401,39.04,75,75,20.71,SJ,2021-07-01 04:24:14
174,Coquimbo,-29.9533,-71.3436,49.73,93,90,4.61,CL,2021-07-01 04:24:14
175,Tūkrah,32.5341,20.5791,83.21,41,0,3.56,LY,2021-07-01 04:24:15
176,Listowel,52.4464,-9.485,54.84,89,76,1.72,IE,2021-07-01 04:24:15
177,Clyde River,70.4692,-68.5914,52.03,62,90,17.27,CA,2021-07-01 04:24:16
178,Mogadishu,2.0371,45.3438,78.67,65,75,16.11,SO,2021-07-01 04:21:48
179,Warwick,41.7001,-71.4162,74.08,91,75,5.75,US,2021-07-01 04:24:16
180,Poum,-20.2333,164.0167,72.75,55,92,16.4,NC,2021-07-01 04:24:17
181,Masvingo,-20.0637,30.8277,53.92,30,3,4.43,ZW,2021-07-01 04:24:17
182,Safford,32.834,-109.7076,83.07,53,75,14.97,US,2021-07-01 04:24:18
183,Kachug,53.9606,105.8817,63.25,72,100,5.5,RU,2021-07-01 04:24:18
184,Saint George,37.1041,-113.5841,85.39,33,1,7.0,US,2021-07-01 04:21:07
185,Vanimo,-2.6741,141.3028,80.31,76,85,4.68,PG,2021-07-01 04:24:19
186,Agadez,19.75,10.25,82.49,14,0,10.45,NE,2021-07-01 04:24:19
187,Saldanha,-33.0117,17.9442,55.45,84,13,10.2,ZA,2021-07-01 04:24:20
188,Arman',59.7,150.1667,64.08,68,99,5.73,RU,2021-07-01 04:24:20
189,Tiksi,71.6872,128.8694,44.37,72,71,4.12,RU,2021-07-01 04:24:20
190,Makakilo City,21.3469,-158.0858,80.92,59,90,6.91,US,2021-07-01 04:24:21
191,Doha,25.2867,51.5333,94.98,58,0,5.75,QA,2021-07-01 04:24:21
192,Port Lincoln,-34.7333,135.8667,58.93,59,42,17.27,AU,2021-07-01 04:24:22
193,Camapuã,-19.5314,-54.0439,44.13,39,0,5.95,BR,2021-07-01 04:24:22
194,Severo-Kuril'sk,50.6789,156.125,48.78,87,64,15.59,RU,2021-07-01 04:24:22
195,Goderich,43.7501,-81.7165,68.32,83,52,3.44,CA,2021-07-01 04:24:23
196,West Fargo,46.875,-96.9004,75.25,65,1,3.44,US,2021-07-01 04:21:14
197,Bonga,7.2833,36.2333,57.97,99,100,2.19,ET,2021-07-01 04:24:23
198,Bagé,-31.3314,-54.1069,45.81,93,20,3.44,BR,2021-07-01 04:24:24
199,Chatrapur,19.35,84.9833,90.77,60,100,10.13,IN,2021-07-01 04:24:24
200,Killybegs,54.6333,-8.45,53.28,93,100,1.77,IE,2021-07-01 04:24:25
201,Kysyl-Syr,63.8986,122.7617,85.69,41,83,8.61,RU,2021-07-01 04:24:25
202,San Fernando del Valle de Catamarca,-28.4696,-65.7852,42.04,40,39,5.99,AR,2021-07-01 04:24:25
203,Rawson,-43.3002,-65.1023,47.62,47,0,15.82,AR,2021-07-01 04:20:57
204,Kargasok,59.0556,80.8572,69.22,47,57,2.55,RU,2021-07-01 04:24:26
205,Sisimiut,66.9395,-53.6735,38.82,84,68,0.34,GL,2021-07-01 04:24:26
206,Nikel,69.4128,30.222,57.38,57,6,18.48,RU,2021-07-01 04:24:27
207,Kyaikto,17.3,97.0167,82.65,77,100,7.31,MM,2021-07-01 04:24:27
208,Hithadhoo,-0.6,73.0833,82.74,74,23,9.89,MV,2021-07-01 04:24:27
209,Uruçuí,-7.2294,-44.5561,73.11,50,6,3.0,BR,2021-07-01 04:24:28
210,Port Hedland,-20.3167,118.5667,86.05,20,6,19.57,AU,2021-07-01 04:24:28
211,Saint-Augustin,51.226,-58.6502,49.24,83,98,11.88,CA,2021-07-01 04:24:29
212,Mahajanga,-15.7167,46.3167,68.02,68,0,10.36,MG,2021-07-01 04:24:29
213,Mīzan Teferī,6.9833,35.5833,60.26,88,100,2.66,ET,2021-07-01 04:24:30
214,Esperance,-33.8667,121.9,58.84,77,46,21.09,AU,2021-07-01 04:24:30
215,Dingle,10.9995,122.6711,89.71,59,97,3.18,PH,2021-07-01 04:24:31
216,Batagay-Alyta,67.8006,130.4114,73.58,39,65,8.57,RU,2021-07-01 04:24:31
217,Oulu,65.0124,25.4682,59.22,69,0,1.01,FI,2021-07-01 04:24:31
218,Provideniya,64.3833,-173.3,46.51,87,90,11.18,RU,2021-07-01 04:24:32
219,Altamira,-3.2033,-52.2064,70.93,73,2,2.48,BR,2021-07-01 04:24:32
220,Lavrentiya,65.5833,-171.0,41.61,89,100,11.56,RU,2021-07-01 04:24:32
221,Harper,4.375,-7.7169,76.55,81,95,7.31,LR,2021-07-01 04:24:33
222,Uzunovo,54.5386,38.6173,60.6,93,100,11.27,RU,2021-07-01 04:24:33
223,Praia da Vitória,38.7333,-27.0667,66.76,77,40,11.7,PT,2021-07-01 04:24:34
224,Trincomalee,8.5711,81.2335,87.4,60,99,12.93,LK,2021-07-01 04:24:34
225,Atbasar,51.8,68.3333,81.68,36,20,9.55,KZ,2021-07-01 04:24:35
226,Cervo,43.6702,-7.4101,61.2,92,97,6.31,ES,2021-07-01 04:24:35
227,Sabang,5.8933,95.3214,83.14,72,60,10.83,ID,2021-07-01 04:24:35
228,Tuktoyaktuk,69.4541,-133.0374,46.4,87,90,9.22,CA,2021-07-01 04:24:36
229,Pardubice,50.0407,15.7766,59.47,75,0,7.0,CZ,2021-07-01 04:24:36
230,Morros,-9.4467,-46.3003,68.11,48,1,3.02,BR,2021-07-01 04:24:37
231,Geraldton,-28.7667,114.6,64.81,63,0,11.5,AU,2021-07-01 04:24:37
232,Puerto Carreño,6.189,-67.4859,73.26,91,28,5.55,CO,2021-07-01 04:20:09
233,Bingen,48.1113,9.2724,53.64,99,100,6.26,DE,2021-07-01 04:24:38
234,Sanghar,26.0466,68.9481,91.47,44,64,21.61,PK,2021-07-01 04:24:38
235,Caravelas,-17.7125,-39.2481,72.07,79,98,14.27,BR,2021-07-01 04:24:38
236,Sinnamary,5.3833,-52.95,76.51,87,55,3.15,GF,2021-07-01 04:24:39
237,Dabakala,8.3667,-4.4333,71.46,97,100,5.88,CI,2021-07-01 04:24:39
238,Batemans Bay,-35.7167,150.1833,63.19,55,100,3.74,AU,2021-07-01 04:24:40
239,Canguçu,-31.395,-52.6756,44.24,91,100,3.71,BR,2021-07-01 04:20:56
240,Marsala,37.7966,12.4352,78.93,88,0,4.61,IT,2021-07-01 04:24:40
241,Santa Rosa,14.3122,121.1114,93.09,58,100,3.94,PH,2021-07-01 04:24:41
242,Coffs Harbour,-30.3,153.1333,64.67,94,75,6.91,AU,2021-07-01 04:24:41
243,Sterling,39.0062,-77.4286,77.52,94,40,0.0,US,2021-07-01 04:22:51
244,Belyy Yar,53.6039,91.3903,62.49,88,75,0.0,RU,2021-07-01 04:24:42
245,São João Batista,-27.2761,-48.8494,58.03,98,47,2.33,BR,2021-07-01 04:24:42
246,Vostok,46.4856,135.8833,56.68,97,100,2.86,RU,2021-07-01 04:24:42
247,Torrelodones,40.5765,-3.9266,70.02,39,73,1.63,ES,2021-07-01 04:24:43
248,Mount Gambier,-37.8333,140.7667,58.91,67,18,8.05,AU,2021-07-01 04:24:43
249,Iquique,-20.2208,-70.1431,59.04,82,42,2.98,CL,2021-07-01 04:22:01
250,Bandarbeyla,9.4942,50.8122,83.12,52,50,28.41,SO,2021-07-01 04:24:44
251,Dikson,73.5069,80.5464,34.61,84,100,0.6,RU,2021-07-01 04:24:44
252,Faya,18.3851,42.4509,71.71,28,14,1.25,SA,2021-07-01 04:24:45
253,Cap Malheureux,-19.9842,57.6142,74.46,69,56,8.99,MU,2021-07-01 04:24:45
254,Romny,50.751,33.4747,66.4,82,36,4.14,UA,2021-07-01 04:24:46
255,Luwuk,-0.9516,122.7875,81.18,83,100,8.57,ID,2021-07-01 04:24:46
256,Hobyo,5.3505,48.5268,77.34,66,58,20.62,SO,2021-07-01 04:24:46
257,Samoylovka,51.184,43.7081,66.25,82,40,6.82,RU,2021-07-01 04:24:47
258,Roosendaal,51.5308,4.4653,56.98,86,90,6.91,NL,2021-07-01 04:24:47
259,Te Anau,-45.4167,167.7167,46.89,78,71,0.94,NZ,2021-07-01 04:24:48
260,Hachinohe,40.5,141.5,80.26,54,100,10.78,JP,2021-07-01 04:24:48
261,Khovd,48.0056,91.6419,67.23,35,32,2.86,MN,2021-07-01 04:24:48
262,Snyder,32.7179,-100.9176,77.14,78,1,4.61,US,2021-07-01 04:24:49
263,Hilton Head,32.2163,-80.7526,79.99,85,1,0.0,US,2021-07-01 04:24:49
264,Finnsnes,69.2296,17.9811,59.61,75,20,7.76,NO,2021-07-01 04:24:50
265,Linda,39.1277,-121.5508,85.68,52,1,11.5,US,2021-07-01 04:24:50
266,Limbaži,57.5129,24.7194,69.04,74,41,5.03,LV,2021-07-01 04:24:51
267,Causapscal,48.3542,-67.227,59.94,99,100,4.5,CA,2021-07-01 04:24:51
268,Pevek,69.7008,170.3133,35.13,74,19,17.11,RU,2021-07-01 04:24:52
269,George Town,5.4112,100.3354,87.75,69,40,4.61,MY,2021-07-01 04:23:03
270,Yebaishou,41.3975,119.6408,88.5,35,14,9.57,CN,2021-07-01 04:24:52
271,Saurimo,-9.6608,20.3916,56.14,34,5,5.53,AO,2021-07-01 04:24:53
272,Huarmey,-10.0681,-78.1522,63.7,86,46,8.01,PE,2021-07-01 04:24:53
273,Torbay,47.6666,-52.7314,54.39,92,90,10.36,CA,2021-07-01 04:24:53
274,San Juan,-31.5375,-68.5364,43.9,36,81,2.33,AR,2021-07-01 04:24:54
275,Muli,2.9167,73.5667,82.74,75,21,13.0,MV,2021-07-01 04:24:54
276,Kelapa Sawit,1.6698,103.5327,89.71,73,40,6.91,MY,2021-07-01 04:24:54
277,Farafangana,-22.8167,47.8333,64.83,91,45,4.45,MG,2021-07-01 04:24:55
278,Hong Kong,22.2855,114.1577,91.45,87,89,13.0,HK,2021-07-01 04:22:56
279,Borodino,55.9106,94.8983,65.88,57,51,5.41,RU,2021-07-01 04:24:55
280,Ishigaki,24.3448,124.1572,87.93,84,75,10.36,JP,2021-07-01 04:24:56
281,Yeppoon,-23.1333,150.7333,67.78,78,100,9.35,AU,2021-07-01 04:24:56
282,Kenora,49.8167,-94.4337,73.38,46,20,5.75,CA,2021-07-01 04:24:57
283,Westport,41.1415,-73.3579,75.74,91,20,1.01,US,2021-07-01 04:24:57
284,Vestmannaeyjar,63.4427,-20.2734,51.75,91,100,5.77,IS,2021-07-01 04:24:57
285,Jackson,42.4165,-122.8345,82.27,39,1,9.22,US,2021-07-01 04:23:20
286,Tongliao,43.6125,122.2653,87.39,42,47,10.09,CN,2021-07-01 04:21:48
287,Kruisfontein,-34.0033,24.7314,60.89,49,100,14.32,ZA,2021-07-01 04:24:58
288,Zhigansk,66.7697,123.3711,72.54,43,94,1.81,RU,2021-07-01 04:24:59
289,Mumford,5.2618,-0.759,75.9,88,100,6.4,GH,2021-07-01 04:24:59
290,Tuatapere,-46.1333,167.6833,48.81,81,51,2.46,NZ,2021-07-01 04:24:59
291,Aksarka,66.5606,67.7975,63.66,97,100,15.9,RU,2021-07-01 04:25:00
292,Batagay,67.6333,134.6333,77.43,37,71,3.27,RU,2021-07-01 04:25:00
293,Arlit,18.7369,7.3853,87.84,11,34,10.29,NE,2021-07-01 04:25:01
294,Badnāwar,23.0167,75.2167,77.67,66,82,18.66,IN,2021-07-01 04:25:03
295,Yangi Marg`ilon,40.4272,71.7189,89.02,26,62,2.3,UZ,2021-07-01 04:25:03
296,Río Cuarto,-33.1307,-64.3499,36.84,44,99,14.43,AR,2021-07-01 04:25:03
297,Saint-Joseph,-21.3667,55.6167,69.48,81,28,13.02,RE,2021-07-01 04:25:04
298,Airai,-8.9266,125.4092,73.45,46,6,4.85,TL,2021-07-01 04:25:04
299,Ust-Nera,64.5667,143.2,74.79,47,96,2.89,RU,2021-07-01 04:25:05
300,Nome,64.5011,-165.4064,53.67,94,90,5.75,US,2021-07-01 04:25:05
301,Maceió,-9.6658,-35.7353,72.84,100,75,2.3,BR,2021-07-01 04:25:05
302,Iralaya,15.0,-83.2333,80.29,84,100,11.74,HN,2021-07-01 04:25:06
303,Nouakchott,18.0858,-15.9785,71.53,86,7,13.96,MR,2021-07-01 04:20:17
304,Kalmunai,7.4167,81.8167,86.36,63,85,10.96,LK,2021-07-01 04:25:06
305,Ponta Delgada,37.7333,-25.6667,68.72,94,40,13.8,PT,2021-07-01 04:25:07
306,Dolores,-36.3132,-57.6792,45.48,88,100,9.98,AR,2021-07-01 04:25:07
307,Arkhangelsk,64.5401,40.5433,48.31,81,75,8.95,RU,2021-07-01 04:25:08
308,Meulaboh,4.1363,96.1285,84.4,67,38,3.33,ID,2021-07-01 04:25:08
309,Luwingu,-10.2621,29.9271,49.55,69,19,3.13,ZM,2021-07-01 04:25:08
310,Anloga,5.7947,0.8973,75.42,82,98,11.88,GH,2021-07-01 04:25:09
311,Vardø,70.3705,31.1107,51.26,71,18,20.47,NO,2021-07-01 04:25:09
312,Bay Roberts,47.5999,-53.2648,55.15,89,100,1.01,CA,2021-07-01 04:25:10
313,São Filipe,14.8961,-24.4956,72.07,81,2,10.22,CV,2021-07-01 04:25:10
314,Volnovakha,47.601,37.4967,66.94,73,4,5.5,UA,2021-07-01 04:25:10
315,Paracuru,-3.41,-39.0306,80.62,89,78,10.8,BR,2021-07-01 04:25:11
316,Mola di Bari,41.0609,17.0873,81.91,50,0,11.7,IT,2021-07-01 04:25:11
317,Walvis Bay,-22.9575,14.5053,47.35,93,0,9.22,NA,2021-07-01 04:25:12
318,Severobaykal'sk,55.65,109.3167,56.23,95,100,2.44,RU,2021-07-01 04:25:12
319,Ahipara,-35.1667,173.1667,58.53,57,4,5.99,NZ,2021-07-01 04:25:12
320,Grand Gaube,-20.0064,57.6608,74.37,69,62,8.99,MU,2021-07-01 04:25:13
321,Amalāpuram,16.5833,82.0167,84.58,66,100,6.64,IN,2021-07-01 04:25:13
322,Ribeira Grande,38.5167,-28.7,68.23,77,100,18.37,PT,2021-07-01 04:25:14
323,Okha,53.5739,142.9478,64.31,52,0,6.17,RU,2021-07-01 04:25:14
324,Ozernovskiy,51.5,156.5167,46.31,95,95,12.03,RU,2021-07-01 04:25:14
325,Mahon,39.8885,4.2658,64.96,88,0,4.61,ES,2021-07-01 04:25:15
326,Aklavik,68.2191,-135.0107,54.32,69,100,5.95,CA,2021-07-01 04:25:15
327,Ostrovnoy,68.0531,39.5131,48.81,66,7,8.14,RU,2021-07-01 04:25:16
328,Saint Lawrence,36.0553,14.204,80.01,74,34,1.99,MT,2021-07-01 04:25:16
329,Umm Kaddadah,13.6017,26.6876,80.38,56,66,10.27,SD,2021-07-01 04:25:17
330,Chui,-33.6971,-53.4616,48.61,94,86,5.21,UY,2021-07-01 04:25:17
331,Mehamn,71.0357,27.8492,55.35,58,0,12.66,NO,2021-07-01 04:25:17
332,Tahoua,14.8888,5.2692,86.45,39,92,8.3,NE,2021-07-01 04:25:18
333,Nymburk,50.1861,15.0417,59.54,92,51,8.1,CZ,2021-07-01 04:25:18
334,Dickson,36.077,-87.3878,76.05,97,90,0.0,US,2021-07-01 04:25:19
335,Agogo,6.8,-1.0819,68.27,98,100,3.89,GH,2021-07-01 04:25:19
336,Mayo,38.8876,-76.5119,80.98,84,90,4.0,US,2021-07-01 04:25:19
337,Ust-Maya,60.4167,134.5333,85.96,24,90,2.8,RU,2021-07-01 04:25:20
338,Nishihara,26.1842,127.7558,85.66,89,90,12.66,JP,2021-07-01 04:25:20
339,Roebourne,-20.7833,117.1333,80.35,34,0,17.47,AU,2021-07-01 04:25:21
340,Balāngīr,20.7167,83.4833,89.78,56,100,10.94,IN,2021-07-01 04:25:21
341,Atasū,48.6814,71.6433,89.73,23,18,11.99,KZ,2021-07-01 04:25:22
342,Puerto Baquerizo Moreno,-0.9,-89.6,73.18,82,82,9.55,EC,2021-07-01 04:25:23
343,Lázaro Cárdenas,17.9583,-102.2,78.75,79,100,2.08,MX,2021-07-01 04:25:23
344,Puerto Colombia,10.9878,-74.9547,80.69,81,0,19.64,CO,2021-07-01 04:21:27
345,Talnakh,69.4865,88.3972,61.79,61,71,4.32,RU,2021-07-01 04:25:24
346,Utiel,39.5667,-1.2,65.23,87,78,1.41,ES,2021-07-01 04:25:24
347,Bathsheba,13.2167,-59.5167,77.61,73,40,19.57,BB,2021-07-01 04:25:25
348,Biak,-0.9131,122.8766,79.09,81,100,10.56,ID,2021-07-01 04:25:25
349,Klaksvík,62.2266,-6.589,47.32,90,51,2.77,FO,2021-07-01 04:25:26
350,Isangel,-19.55,169.2667,71.87,56,26,17.27,VU,2021-07-01 04:25:26
351,Rantepao,-2.9701,119.8978,79.77,63,89,4.76,ID,2021-07-01 04:25:27
352,Compiègne,49.4179,2.8261,57.2,95,99,3.47,FR,2021-07-01 04:25:27
353,Hirara,24.8,125.2833,88.07,84,75,16.11,JP,2021-07-01 04:25:27
354,Bagotville,-28.9833,153.4167,66.22,96,90,7.9,AU,2021-07-01 04:25:28
355,Mindupok,6.0906,124.4233,84.09,72,96,3.76,PH,2021-07-01 04:25:28
356,Bondo,3.8146,23.6866,67.6,96,79,1.63,CD,2021-07-01 04:25:29
357,Fort Nelson,58.8053,-122.7002,71.19,78,90,11.5,CA,2021-07-01 04:25:29
358,Kiryat Gat,31.61,34.7642,77.92,100,0,2.39,IL,2021-07-01 04:25:05
359,Nouadhibou,20.931,-17.0347,66.18,88,0,18.41,MR,2021-07-01 04:25:30
360,Scarborough,54.2797,-0.4044,52.92,88,100,1.01,GB,2021-07-01 04:20:58
361,Marana,32.4367,-111.2254,87.26,48,40,8.05,US,2021-07-01 04:24:00
362,Mikrokambos,40.8408,22.7752,80.62,74,0,1.88,GR,2021-07-01 04:25:31
363,Sur,22.5667,59.5289,93.18,42,49,8.34,OM,2021-07-01 04:25:31
364,Morehead,37.2711,-87.1764,75.94,88,75,0.0,US,2021-07-01 04:25:32
365,Whitehorse,60.7161,-135.0538,68.77,42,75,2.3,CA,2021-07-01 04:25:32
366,Baykit,61.67,96.37,65.26,41,18,6.08,RU,2021-07-01 04:25:32
367,Marawi,7.9986,124.2928,79.86,72,97,4.12,PH,2021-07-01 04:25:33
368,Lamu,-2.2717,40.902,75.92,84,98,12.03,KE,2021-07-01 04:25:33
369,Xiongzhou,25.1167,114.3,90.55,60,99,9.33,CN,2021-07-01 04:25:33
370,Coahuayana Viejo,18.7333,-103.6833,76.51,89,50,0.74,MX,2021-07-01 04:25:34
371,Bintulu,3.1667,113.0333,79.21,89,40,4.61,MY,2021-07-01 04:25:34
372,Buala,-8.145,159.5921,83.21,75,27,8.21,SB,2021-07-01 04:25:35
373,Coyhaique,-45.5752,-72.0662,39.15,87,0,4.61,CL,2021-07-01 04:22:16
374,Starosubkhangulovo,53.1031,57.4423,81.3,55,34,5.91,RU,2021-07-01 04:25:35
375,Calama,-22.4667,-68.9333,43.29,12,25,20.71,CL,2021-07-01 04:22:20
376,Okato,-39.2,173.8833,54.43,69,2,3.47,NZ,2021-07-01 04:25:36
377,Igrim,63.1906,64.4162,82.24,54,78,10.69,RU,2021-07-01 04:25:36
378,Gizo Government Station,-8.103,156.8419,82.53,77,20,10.29,SB,2021-07-01 04:25:37
379,Sangar,63.9242,127.4739,80.76,47,53,4.65,RU,2021-07-01 04:25:37
380,Yantzaza,-3.8278,-78.7594,63.19,99,100,0.43,EC,2021-07-01 04:25:37
381,Maumere,-8.6199,122.2111,83.5,62,53,6.96,ID,2021-07-01 04:25:38
382,Stuttgart,48.7823,9.177,56.64,89,75,5.75,DE,2021-07-01 04:22:53
383,Soyo,-6.1349,12.3689,71.49,93,100,5.5,AO,2021-07-01 04:25:38
384,San,13.3034,-4.8956,85.95,47,79,6.06,ML,2021-07-01 04:23:20
385,Anadyr,64.75,177.4833,39.7,93,75,17.0,RU,2021-07-01 04:25:39
386,Tual,-5.6667,132.75,80.53,82,53,19.3,ID,2021-07-01 04:25:39
387,Muisne,0.6,-80.0333,75.76,84,100,9.24,EC,2021-07-01 04:25:40
388,Korsakov,46.6328,142.7813,55.24,74,100,10.89,RU,2021-07-01 04:25:40
389,Albanel,48.8832,-72.4487,57.34,100,100,4.61,CA,2021-07-01 04:25:13
390,Nālūt,30.3333,10.85,84.83,12,0,3.94,LY,2021-07-01 04:25:41
391,Kuala Terengganu,5.3302,103.1408,89.55,70,20,5.75,MY,2021-07-01 04:25:36
392,Merauke,-8.4667,140.3333,82.35,74,75,16.62,ID,2021-07-01 04:25:07
393,Kungurtug,50.5994,97.5228,66.02,39,13,2.75,RU,2021-07-01 04:25:42
394,The Pas,53.8251,-101.2541,69.82,68,1,8.05,CA,2021-07-01 04:25:42
395,Mennzel Bou Zelfa,36.6831,10.5843,75.0,91,59,7.38,TN,2021-07-01 04:25:42
396,Teruel,40.6667,-0.6667,58.96,72,81,4.27,ES,2021-07-01 04:25:00
397,Mossamedes,-15.1961,12.1522,64.27,78,4,7.99,AO,2021-07-01 04:25:43
398,Lucapa,-8.4192,20.7447,59.99,35,95,3.04,AO,2021-07-01 04:25:44
399,Ubari,26.5921,12.7805,85.5,14,0,6.51,LY,2021-07-01 04:25:44
400,Akdepe,42.0551,59.3788,95.09,24,9,9.66,TM,2021-07-01 04:25:45
401,Zhuhai,22.2769,113.5678,91.18,79,40,13.8,CN,2021-07-01 04:25:29
402,Kirkland Lake,48.1446,-80.0377,58.03,88,99,8.19,CA,2021-07-01 04:25:45
403,Morón,-34.6534,-58.6198,48.9,96,100,5.01,AR,2021-07-01 04:25:46
404,Pilar,-9.5972,-35.9567,71.53,96,97,2.37,BR,2021-07-01 04:25:46
405,Vila Franca do Campo,37.7167,-25.4333,68.41,94,100,12.73,PT,2021-07-01 04:25:47
406,Yulara,-25.2406,130.9889,71.44,28,0,3.44,AU,2021-07-01 04:25:47
407,Sinnai,39.3042,9.2036,68.47,71,0,6.91,IT,2021-07-01 04:25:47
408,Rechka Vydrino,51.485,104.8461,55.6,91,100,6.51,RU,2021-07-01 04:24:11
409,Abu Dhabi,24.4667,54.3667,95.02,34,0,2.3,AE,2021-07-01 04:25:44
410,Kamalpur,24.2,91.8333,78.6,70,98,8.19,IN,2021-07-01 04:25:48
411,Sambava,-14.2667,50.1667,70.83,78,100,11.1,MG,2021-07-01 04:25:49
412,Arys,42.4252,68.795,97.02,14,5,4.14,KZ,2021-07-01 04:25:49
413,Fairbanks,64.8378,-147.7164,73.6,47,1,0.0,US,2021-07-01 04:25:09
414,Henties Bay,-22.116,14.2845,56.61,85,0,5.77,NA,2021-07-01 04:25:50
415,Elizabeth City,36.2946,-76.2511,81.01,80,1,5.01,US,2021-07-01 04:25:50
416,Tiznit Province,29.5833,-9.5,66.45,68,1,1.54,MA,2021-07-01 04:25:50
417,Hervey Bay,-25.2986,152.8535,73.04,80,16,5.99,AU,2021-07-01 04:25:51
418,Tākestān,36.0696,49.6959,78.93,38,4,5.61,IR,2021-07-01 04:25:51
419,Valparaíso,-33.0393,-71.6273,52.48,85,97,0.0,CL,2021-07-01 04:25:52
420,Talcahuano,-36.7167,-73.1167,49.68,100,90,2.3,CL,2021-07-01 04:25:52
421,Luba,3.4568,8.5547,73.29,84,100,5.5,GQ,2021-07-01 04:25:53
422,Busca,44.5181,7.4743,57.96,83,0,6.91,IT,2021-07-01 04:25:53
423,San Isidro,-12.1167,-77.05,60.39,96,90,6.91,PE,2021-07-01 04:25:53
424,Sémbé,1.6481,14.5806,69.04,89,88,1.9,CG,2021-07-01 04:25:54
425,Berlevåg,70.8578,29.0864,55.4,67,55,13.82,NO,2021-07-01 04:25:54
426,Narasannapeta,18.4167,84.05,90.03,61,100,10.13,IN,2021-07-01 04:25:55
427,Hasaki,35.7333,140.8333,72.28,94,100,10.74,JP,2021-07-01 04:25:55
428,Sonoita,31.85,-112.8333,85.5,52,50,10.42,MX,2021-07-01 04:25:55
429,Saint Stephen,50.3333,-4.9,58.39,100,75,6.91,GB,2021-07-01 04:25:56
430,Ambovombe,-25.1667,46.0833,61.63,65,2,7.49,MG,2021-07-01 04:25:56
431,Vakhrushi,58.6847,50.0261,69.35,75,99,2.51,RU,2021-07-01 04:25:57
432,Kapenguria,1.2511,35.0895,55.09,86,91,1.61,KE,2021-07-01 04:25:57
433,Mastic Beach,40.7668,-72.8521,75.54,93,40,3.0,US,2021-07-01 04:25:57
434,Tezu,27.9167,96.1667,75.36,99,100,3.18,IN,2021-07-01 04:25:58
435,Marzuq,14.4,46.4667,79.97,35,51,4.27,YE,2021-07-01 04:25:58
436,Acapulco de Juárez,16.8634,-99.8901,79.92,83,84,2.8,MX,2021-07-01 04:25:59
437,Shingū,33.7333,135.9833,72.59,96,100,5.84,JP,2021-07-01 04:25:59
438,Basco,20.4487,121.9702,84.42,77,98,15.08,PH,2021-07-01 04:26:00
439,Wuda,39.4994,106.7117,88.68,12,12,12.66,CN,2021-07-01 04:26:00
440,Koslan,63.4564,48.8989,57.31,87,100,8.7,RU,2021-07-01 04:26:00
441,Taoudenni,22.6783,-3.9836,94.05,17,0,5.21,ML,2021-07-01 04:26:01
442,Jamame,0.0722,42.7506,77.18,71,71,11.7,SO,2021-07-01 04:26:01
443,La Macarena,2.1837,-73.7849,66.4,98,100,4.88,CO,2021-07-01 04:26:02
444,Bonavista,48.6499,-53.1147,52.12,95,100,12.57,CA,2021-07-01 04:26:02
445,Āsosa,10.0667,34.5333,59.88,85,100,5.28,ET,2021-07-01 04:26:02
446,Zapolyarnyy,69.4154,30.8136,56.48,57,6,19.64,RU,2021-07-01 04:26:03
447,Sola,-13.8833,167.55,78.69,76,38,26.17,VU,2021-07-01 04:26:03
448,Khani,41.9563,42.9566,65.77,72,14,1.86,GE,2021-07-01 04:26:04
449,Tigil',57.8,158.6667,65.34,55,99,12.06,RU,2021-07-01 04:26:04
450,Tura,25.5198,90.2201,77.27,92,100,8.75,IN,2021-07-01 04:26:04
451,Phan Thiet,10.9333,108.1,93.18,49,16,13.0,VN,2021-07-01 04:26:05
452,Kurayoshi,35.4333,133.8167,84.02,74,99,4.88,JP,2021-07-01 04:24:11
453,Dunedin,-45.8742,170.5036,50.81,59,66,1.99,NZ,2021-07-01 04:26:05
454,Zhuanghe,39.7008,122.9911,75.49,79,72,9.4,CN,2021-07-01 04:26:06
455,Kostino,58.9097,53.2691,71.69,89,96,2.68,RU,2021-07-01 04:26:06
456,Sadasivpet,17.6212,77.9503,85.01,70,100,4.68,IN,2021-07-01 04:26:07
457,Mpongwe,-13.5091,28.155,49.51,52,13,3.47,ZM,2021-07-01 04:26:07
458,Presidencia Roque Sáenz Peña,-26.7852,-60.4388,40.68,65,87,6.62,AR,2021-07-01 04:26:08
459,Kitakata,37.65,139.8667,72.32,83,100,5.84,JP,2021-07-01 04:26:08
460,Bentiu,9.2333,29.8333,70.83,90,100,5.06,SS,2021-07-01 04:26:08
461,Nara,34.6851,135.8049,76.5,70,99,14.43,JP,2021-07-01 04:26:09
462,Xining,36.6167,101.7667,65.68,45,42,4.7,CN,2021-07-01 04:26:09
463,Morant Bay,17.8815,-76.4093,82.02,86,10,8.86,JM,2021-07-01 04:26:10
464,Imeni Poliny Osipenko,52.4201,136.4853,67.03,64,83,2.06,RU,2021-07-01 04:26:10
465,Santa Cruz de la Sierra,-17.8,-63.1667,42.26,87,0,3.44,BO,2021-07-01 04:26:10
466,Hombourg-Haut,49.1236,6.774,57.02,91,100,8.08,FR,2021-07-01 04:26:11
467,Mil'kovo,54.7167,158.6167,72.75,50,5,3.94,RU,2021-07-01 04:26:11
468,Oranjemund,-28.55,16.4333,54.79,75,0,8.81,NA,2021-07-01 04:26:12
469,Mnogovershinnyy,53.9353,139.9242,70.63,35,1,3.4,RU,2021-07-01 04:26:12
470,Namatanai,-3.6667,152.4333,83.08,76,89,8.37,PG,2021-07-01 04:26:12
471,Uvalde,29.3669,-99.767,78.53,71,1,4.61,US,2021-07-01 04:26:13
472,Ahwa,20.75,73.6833,80.46,74,96,12.19,IN,2021-07-01 04:26:13
473,Sapouy,11.5544,-1.7736,76.82,70,40,5.44,BF,2021-07-01 04:26:13
474,Neiafu,-18.65,-173.9833,81.28,83,40,5.75,TO,2021-07-01 04:26:14
475,Hudiksvall,61.729,17.1036,55.35,62,0,7.43,SE,2021-07-01 04:26:14
476,Gorodets,56.6514,43.475,65.88,75,96,0.94,RU,2021-07-01 04:26:15
477,Coruripe,-10.1256,-36.1756,72.7,90,96,2.26,BR,2021-07-01 04:26:15
478,Coronel Fabriciano,-19.5186,-42.6289,64.44,88,75,5.75,BR,2021-07-01 04:26:15
479,Garh Maharaja,30.8339,71.9053,102.96,24,0,16.42,PK,2021-07-01 04:26:16
480,Alyangula,-13.8483,136.4192,82.27,61,10,11.5,AU,2021-07-01 04:26:16
481,Rincon,32.296,-81.2354,79.86,91,75,0.0,US,2021-07-01 04:26:17
482,Santa Cruz Cabrália,-16.2781,-39.0247,71.83,88,90,8.05,BR,2021-07-01 04:26:17
483,Seminole,28.7086,-81.2081,78.08,94,1,0.0,US,2021-07-01 04:24:41
484,Port Augusta,-32.5,137.7667,61.7,56,45,5.48,AU,2021-07-01 04:26:18
485,Port Macquarie,-31.4333,152.9167,62.89,90,100,10.02,AU,2021-07-01 04:22:20
486,Molina,-35.1167,-71.2833,42.37,100,100,3.44,CL,2021-07-01 04:26:18
487,Olafsvik,64.8945,-23.7142,49.48,96,56,11.95,IS,2021-07-01 04:26:19
488,Pisco,-13.7,-76.2167,60.85,88,90,4.61,PE,2021-07-01 04:25:00
489,Stephenville,32.2207,-98.2023,79.95,78,1,5.75,US,2021-07-01 04:23:47
490,Labuan,5.2767,115.2417,86.11,79,20,2.3,MY,2021-07-01 04:26:20
491,Martapura,-3.4167,114.85,86.09,70,40,8.05,ID,2021-07-01 04:26:20
492,Labuhan,-6.8844,112.2051,84.79,66,92,1.03,ID,2021-07-01 04:26:20
493,Tergnier,49.6561,3.3011,56.08,96,100,4.68,FR,2021-07-01 04:26:21
494,Son La,21.3167,103.9,80.29,75,100,4.38,VN,2021-07-01 04:26:21
495,Yar-Sale,66.8333,70.8333,57.47,96,100,20.15,RU,2021-07-01 04:26:22
496,Sibolga,1.7427,98.7792,85.32,60,84,3.78,ID,2021-07-01 04:26:22
497,Mildura,-34.2,142.15,65.07,63,75,6.91,AU,2021-07-01 04:26:22
498,Alacaygan,10.8401,123.0583,85.57,70,96,3.13,PH,2021-07-01 04:26:23
499,Haines Junction,60.7522,-137.5108,69.75,32,90,4.61,CA,2021-07-01 04:26:23
500,Whittlesea,-32.1759,26.8244,46.06,60,31,25.52,ZA,2021-07-01 04:26:24
501,Mercedes,-34.6515,-59.4307,43.86,85,100,9.8,AR,2021-07-01 04:26:24
502,Sicuani,-14.2694,-71.2261,42.85,62,9,1.7,PE,2021-07-01 04:26:24
503,Chernyshevsk,52.5243,117.0174,77.29,38,14,13.33,RU,2021-07-01 04:26:25
504,Phalaborwa,-23.943,31.1411,60.08,28,11,4.61,ZA,2021-07-01 04:23:49
505,Onalaska,43.8844,-91.2351,69.06,94,0,1.7,US,2021-07-01 04:22:19
506,Masumbwe,-3.6333,32.1833,65.93,55,59,2.15,TZ,2021-07-01 04:26:26
507,Malbork,54.0359,19.0266,64.87,93,6,9.04,PL,2021-07-01 04:26:26
508,Portland,45.5234,-122.6762,72.09,72,90,4.61,US,2021-07-01 04:23:52
509,Bontang,0.1333,117.5,83.95,68,100,1.74,ID,2021-07-01 04:23:17
510,Thinadhoo,0.5333,72.9333,82.85,74,10,9.73,MV,2021-07-01 04:26:27
511,Haapiti,-17.5667,-149.8667,82.13,73,97,22.73,PF,2021-07-01 04:26:27
512,Tarko-Sale,64.9225,77.785,68.25,43,94,16.75,RU,2021-07-01 04:26:28
513,Bitkine,11.9801,18.2138,77.27,65,96,9.33,TD,2021-07-01 04:26:28
514,Luleå,65.5842,22.1547,60.87,51,0,3.44,SE,2021-07-01 04:26:28
515,Buchanan,5.8808,-10.0467,75.45,89,89,4.59,LR,2021-07-01 04:26:29
516,Bay City,43.5945,-83.8889,72.1,80,1,10.36,US,2021-07-01 04:24:35
517,Ambilobe,-13.2,49.05,66.65,78,4,2.62,MG,2021-07-01 04:26:29
518,Ati,13.2154,18.3353,83.97,51,99,11.79,TD,2021-07-01 04:26:30
519,Honningsvåg,70.9821,25.9704,54.93,71,75,18.41,NO,2021-07-01 04:26:30
520,Umluj,25.0213,37.2685,88.38,47,2,1.92,SA,2021-07-01 04:26:31
521,Iracoubo,5.4802,-53.2011,75.88,88,65,2.73,GF,2021-07-01 04:26:31
522,Pudozh,61.8099,36.5345,57.6,68,10,9.53,RU,2021-07-01 04:26:32
523,Sitka,57.0531,-135.33,57.09,77,90,10.36,US,2021-07-01 04:26:32
524,Sackville,45.9188,-64.3846,68.86,99,100,5.17,CA,2021-07-01 04:26:32
525,Redlands,34.0556,-117.1825,87.66,57,1,1.01,US,2021-07-01 04:26:33
526,Kangaba,11.9333,-8.4167,75.78,79,88,4.32,ML,2021-07-01 04:26:33
527,Cabedelo,-6.9811,-34.8339,74.07,88,100,6.42,BR,2021-07-01 04:26:34
528,Kawalu,-7.3817,108.2082,82.02,71,96,4.97,ID,2021-07-01 04:26:34
529,Chulumani,-16.4096,-67.5263,52.34,85,0,2.44,BO,2021-07-01 04:26:34
530,Bhadrak,21.0633,86.5054,89.19,60,100,10.98,IN,2021-07-01 04:26:35
531,Sistranda,63.7256,8.834,57.9,78,2,12.37,NO,2021-07-01 04:26:35
532,Husavik,66.0449,-17.3389,58.91,79,39,4.5,IS,2021-07-01 04:26:36
533,Talalayivka,50.9578,31.9209,66.56,82,99,5.48,UA,2021-07-01 04:26:36
534,Bad Hall,48.0383,14.2077,57.36,79,99,1.01,AT,2021-07-01 04:26:37
535,Poso,-1.3959,120.7524,85.64,60,99,3.13,ID,2021-07-01 04:26:37
536,Sarakhs,36.5449,61.1577,91.54,27,40,27.63,IR,2021-07-01 04:26:37
537,Kaeo,-35.1,173.7833,59.32,70,8,10.16,NZ,2021-07-01 04:26:38
538,Twin Falls,42.3505,-114.6445,78.93,29,1,11.5,US,2021-07-01 04:26:38
539,Gamba,-2.65,10.0,71.13,96,77,4.07,GA,2021-07-01 04:26:39
540,Ugoofaaru,5.6667,73.0,82.83,76,90,15.1,MV,2021-07-01 04:26:39
541,San Benito Abad,8.929,-75.0271,74.88,96,44,5.44,CO,2021-07-01 04:26:39
542,Şabyā,17.1495,42.6254,89.22,53,18,2.42,SA,2021-07-01 04:26:40
543,Dudinka,69.4058,86.1778,62.55,50,56,3.2,RU,2021-07-01 04:26:40
544,Asău,46.4333,26.4,65.39,87,100,5.32,RO,2021-07-01 04:26:41
545,Alofi,-19.0595,-169.9187,76.89,88,86,10.36,NU,2021-07-01 04:26:41
546,Tomioka,36.25,138.9,74.07,93,100,5.26,JP,2021-07-01 04:26:41
547,Bāgeshwar,29.85,79.7667,87.17,39,73,2.24,IN,2021-07-01 04:26:42
548,Karatau,43.1667,70.4667,91.04,17,19,8.57,KZ,2021-07-01 04:26:42
549,Pangnirtung,66.1451,-65.7125,49.19,72,100,5.86,CA,2021-07-01 04:26:43
550,Warmbad,-28.45,18.7333,43.56,91,0,3.94,NA,2021-07-01 04:26:43
551,Paamiut,61.994,-49.6678,40.21,90,11,11.88,GL,2021-07-01 04:26:43
552,Wukari,7.85,9.7833,73.47,90,97,2.26,NG,2021-07-01 04:26:44
553,Lodja,-3.4833,23.4333,67.78,69,29,0.83,CD,2021-07-01 04:26:44
554,Goālpāra,26.1667,90.6167,81.63,84,100,6.46,IN,2021-07-01 04:26:44
555,Kajaani,64.2273,27.7285,55.45,67,0,10.36,FI,2021-07-01 04:26:45
556,Ushtobe,45.2514,77.9838,83.82,26,9,15.3,KZ,2021-07-01 04:26:45
557,Seymchan,62.8833,152.4333,59.76,64,94,11.23,RU,2021-07-01 04:26:46
558,San Quintín,30.4833,-115.95,66.47,88,21,6.64,MX,2021-07-01 04:26:46
559,Tahe,52.3333,124.7333,70.61,43,39,9.98,CN,2021-07-01 04:26:47
560,Tadine,-21.55,167.8833,70.23,65,27,18.48,NC,2021-07-01 04:26:47
561,Izhma,65.0083,53.9113,58.68,75,99,10.67,RU,2021-07-01 04:26:48
562,Sítio Novo do Tocantins,-5.5183,-47.4611,69.73,65,32,2.75,BR,2021-07-01 04:26:48
563,São José de Piranhas,-7.1206,-38.5019,69.73,86,82,3.31,BR,2021-07-01 04:23:00
